{
  "site_list": [
    {
      "client_site_id": 1,
      "client_site_name": "nl_region_10_zeeland",
      "orientation": 180.0,
      "tilt": 35.0,
      "latitude": 51.45,
      "longitude": 3.84,
      "inverter_capacity_kw": 1014444.0,
      "module_capacity_kw": 1014444.0,
      "site_uuid": "44a71bfa-04cb-4e70-a888-dd78dc1cbfd8",
      "capacity_kw": 933509.0,
      "dno": "{\"dno_id\": \"999\", \"name\": \"999\", \"long_name\": \"999\"}",
      "gsp": "{\"gsp_id\": \"999\", \"name\": \"999\"}"
    },
    {
      "client_site_id": 1,
      "client_site_name": "nl_region_1_groningen",
      "orientation": 180.0,
      "tilt": 35.0,
      "latitude": 53.22,
      "longitude": 6.74,
      "inverter_capacity_kw": 1804882.0,
      "module_capacity_kw": 1804882.0,
      "site_uuid": "69a5e0ec-3fcf-4ff4-aaed-60555477b95f",
      "capacity_kw": 1646178.0,
      "dno": "{\"dno_id\": \"999\", \"name\": \"999\", \"long_name\": \"999\"}",
      "gsp": "{\"gsp_id\": \"999\", \"name\": \"999\"}"
    },
    {
      "client_site_id": 1,
      "client_site_name": "nl_region_9_zuid_holland",
      "orientation": 180.0,
      "tilt": 35.0,
      "latitude": 51.94,
      "longitude": 4.47,
      "inverter_capacity_kw": 3002435.0,
      "module_capacity_kw": 3002435.0,
      "site_uuid": "8075128d-9400-4eec-80cb-44e3a9832da4",
      "capacity_kw": 2959139.0,
      "dno": "{\"dno_id\": \"999\", \"name\": \"999\", \"long_name\": \"999\"}",
      "gsp": "{\"gsp_id\": \"999\", \"name\": \"999\"}"
    },
    {
      "client_site_id": 1,
      "client_site_name": "nl_region_8_noord_holland",
      "orientation": 180.0,
      "tilt": 35.0,
      "latitude": 52.58,
      "longitude": 4.87,
      "inverter_capacity_kw": 2503390.0,
      "module_capacity_kw": 2503390.0,
      "site_uuid": "85f86ab0-e35f-4e16-991f-33f30f7e48bb",
      "capacity_kw": 2270123.0,
      "dno": "{\"dno_id\": \"999\", \"name\": \"999\", \"long_name\": \"999\"}",
      "gsp": "{\"gsp_id\": \"999\", \"name\": \"999\"}"
    },
    {
      "client_site_id": 1,
      "client_site_name": "nl_region_3_drenthe",
      "orientation": 180.0,
      "tilt": 35.0,
      "latitude": 52.86,
      "longitude": 6.62,
      "inverter_capacity_kw": 1810262.0,
      "module_capacity_kw": 1810262.0,
      "site_uuid": "a4900e60-885b-49ff-b8ce-64eabd29eb29",
      "capacity_kw": 1588804.0,
      "dno": "{\"dno_id\": \"999\", \"name\": \"999\", \"long_name\": \"999\"}",
      "gsp": "{\"gsp_id\": \"999\", \"name\": \"999\"}"
    },
    {
      "client_site_id": 1,
      "client_site_name": "nl_region_5_flevoland",
      "orientation": 180.0,
      "tilt": 35.0,
      "latitude": 52.53,
      "longitude": 5.6,
      "inverter_capacity_kw": 1180144.0,
      "module_capacity_kw": 1180144.0,
      "site_uuid": "c09784b2-14b3-4ec2-89ad-2c3364ace542",
      "capacity_kw": 1141095.0,
      "dno": "{\"dno_id\": \"999\", \"name\": \"999\", \"long_name\": \"999\"}",
      "gsp": "{\"gsp_id\": \"999\", \"name\": \"999\"}"
    },
    {
      "client_site_id": 1,
      "client_site_name": "nl_region_4_overijssel",
      "orientation": 180.0,
      "tilt": 35.0,
      "latitude": 52.45,
      "longitude": 6.45,
      "inverter_capacity_kw": 2192672.0,
      "module_capacity_kw": 2192672.0,
      "site_uuid": "c7776d8e-f309-45c3-b659-3ddb152426e3",
      "capacity_kw": 2043183.0,
      "dno": "{\"dno_id\": \"999\", \"name\": \"999\", \"long_name\": \"999\"}",
      "gsp": "{\"gsp_id\": \"999\", \"name\": \"999\"}"
    },
    {
      "client_site_id": 1,
      "client_site_name": "nl_region_12_limburg",
      "orientation": 180.0,
      "tilt": 35.0,
      "latitude": 51.21,
      "longitude": 5.94,
      "inverter_capacity_kw": 2016721.0,
      "module_capacity_kw": 2016721.0,
      "site_uuid": "ceaba806-dc07-4faa-9ce1-c5969f9cc788",
      "capacity_kw": 1870575.0,
      "dno": "{\"dno_id\": \"999\", \"name\": \"999\", \"long_name\": \"999\"}",
      "gsp": "{\"gsp_id\": \"999\", \"name\": \"999\"}"
    },
    {
      "client_site_id": 1,
      "client_site_name": "nl_national",
      "orientation": 180.0,
      "tilt": 35.0,
      "latitude": 52.132633,
      "longitude": 5.291266,
      "inverter_capacity_kw": 20000000.0,
      "module_capacity_kw": 20000000.0,
      "site_uuid": "d1cfe577-aad8-4ffd-b238-1c7799fbf5d1",
      "capacity_kw": 24760957.0,
      "dno": "{\"dno_id\": \"999\", \"name\": \"999\", \"long_name\": \"999\"}",
      "gsp": "{\"gsp_id\": \"999\", \"name\": \"999\"}"
    },
    {
      "client_site_id": 1,
      "client_site_name": "nl_region_11_noord_brabant",
      "orientation": 180.0,
      "tilt": 35.0,
      "latitude": 51.56,
      "longitude": 5.2,
      "inverter_capacity_kw": 4517583.0,
      "module_capacity_kw": 4517583.0,
      "site_uuid": "d4fecd9c-2ba2-439f-86bd-130eb56cb603",
      "capacity_kw": 4349216.0,
      "dno": "{\"dno_id\": \"999\", \"name\": \"999\", \"long_name\": \"999\"}",
      "gsp": "{\"gsp_id\": \"999\", \"name\": \"999\"}"
    },
    {
      "client_site_id": 1,
      "client_site_name": "nl_region_7_utrecht",
      "orientation": 180.0,
      "tilt": 35.0,
      "latitude": 52.08,
      "longitude": 5.17,
      "inverter_capacity_kw": 1396347.0,
      "module_capacity_kw": 1396347.0,
      "site_uuid": "d80337f8-6742-4f53-8a6a-16fcf844ec81",
      "capacity_kw": 1340833.0,
      "dno": "{\"dno_id\": \"999\", \"name\": \"999\", \"long_name\": \"999\"}",
      "gsp": "{\"gsp_id\": \"999\", \"name\": \"999\"}"
    },
    {
      "client_site_id": 1,
      "client_site_name": "nl_region_6_gelderland",
      "orientation": 180.0,
      "tilt": 35.0,
      "latitude": 52.06,
      "longitude": 5.95,
      "inverter_capacity_kw": 3356855.0,
      "module_capacity_kw": 3356855.0,
      "site_uuid": "df8b5771-ceac-405f-b9fb-556de3af7981",
      "capacity_kw": 3312706.0,
      "dno": "{\"dno_id\": \"999\", \"name\": \"999\", \"long_name\": \"999\"}",
      "gsp": "{\"gsp_id\": \"999\", \"name\": \"999\"}"
    },
    {
      "client_site_id": 1,
      "client_site_name": "nl_region_2_friesland",
      "orientation": 180.0,
      "tilt": 35.0,
      "latitude": 53.11,
      "longitude": 5.85,
      "inverter_capacity_kw": 1394916.0,
      "module_capacity_kw": 1394916.0,
      "site_uuid": "ecad13f5-e914-47f6-92a8-8a538aa9a69a",
      "capacity_kw": 1305598.0,
      "dno": "{\"dno_id\": \"999\", \"name\": \"999\", \"long_name\": \"999\"}",
      "gsp": "{\"gsp_id\": \"999\", \"name\": \"999\"}"
    }
  ]
}